{"type":"FeatureCollection","features":[{"type":"Feature","geometry":{"type":"Point","coordinates":[-82.5515,35.5951]},"properties":{"name":"Aria Nightingale","need":"Food and water"}},{"type":"Feature","geometry":{"type":"Point","coordinates":[-82.5542,35.5968]},"properties":{"name":"Kairos Silverwood","need":"Medical supplies"}},{"type":"Feature","geometry":{"type":"Point","coordinates":[-82.5484,35.5934]},"properties":{"name":"Thalia Thorne","need":"Shelter"}},{"type":"Feature","geometry":{"type":"Point","coordinates":[-82.552,35.5918]},"properties":{"name":"Solstice Frost","need":"Car help"}},{"type":"Feature","geometry":{"type":"Point","coordinates":[-82.5565,35.5982]},"properties":{"name":"Elysian Ravenscroft","need":"Financial aid"}},{"type":"Feature","geometry":{"type":"Point","coordinates":[-82.5555,35.6008]},"properties":{"name":"Tom Green","need":"Financial aid"}},{"type":"Feature","geometry":{"type":"Point","coordinates":[-82.551,35.594]},"properties":{"name":"Sam Blue","need":"Medical supplies"}},{"type":"Feature","geometry":{"type":"Point","coordinates":[-82.5525,35.596]},"properties":{"name":"Nina Red","need":"Food and water"}},{"type":"Feature","geometry":{"type":"Point","coordinates":[-82.553,35.5955]},"properties":{"name":"Solstice Frost","need":"Shelter"}},{"type":"Feature","geometry":{"type":"Point","coordinates":[-82.5522,35.5948]},"properties":{"name":"Orion Ashford","need":"Car help"}},{"type":"Feature","geometry":{"type":"Point","coordinates":[-82.556,35.597]},"properties":{"name":"Emma White","need":"Medical supplies"}},{"type":"Feature","geometry":{"type":"Point","coordinates":[-82.554,35.5965]},"properties":{"name":"Mia Yellow","need":"Food and water"}},{"type":"Feature","geometry":{"type":"Point","coordinates":[-82.55,35.592]},"properties":{"name":"Noah Brown","need":"Shelter"}},{"type":"Feature","geometry":{"type":"Point","coordinates":[-82.5518,35.5905]},"properties":{"name":"Ava Blue","need":"Car help"}},{"type":"Feature","geometry":{"type":"Point","coordinates":[-82.5513,35.5952]},"properties":{"name":"Seraphina Silver","need":"Food and water"}},{"type":"Feature","geometry":{"type":"Point","coordinates":[-82.5514,35.5957]},"properties":{"name":"Linda Gold","need":"Medical supplies"}},{"type":"Feature","geometry":{"type":"Point","coordinates":[-82.5516,35.5955]},"properties":{"name":"Chris Copper","need":"Shelter"}},{"type":"Feature","geometry":{"type":"Point","coordinates":[-82.5517,35.5953]},"properties":{"name":"Zephyr Everhart","need":"Car help"}},{"type":"Feature","geometry":{"type":"Point","coordinates":[-82.5519,35.5956]},"properties":{"name":"Lysander Moonshadow","need":"Financial aid"}}]}
